[
    {
        "type": "outdoor",
        "name": "Jurong Lake Gardens",
        "latitude": 1.33605661779116,
        "longitude": 103.731160967029,
        "image": null
    },
    {
        "type": "outdoor",
        "name": "Fort Canning Park",
        "latitude": 1.29177800435869,
        "longitude": 103.846609005448,
        "image": "images/fort_canning_park.jpg"
    },
    {
        "type": "outdoor",
        "name": "Coney Island Park",
        "latitude": 1.4099130157165,
        "longitude": 103.923130995416,
        "image": null
    },
    {
        "type": "outdoor",
        "name": "Lower Seletar Reservoir Park",
        "latitude": 1.40997400015505,
        "longitude": 103.832171003957,
        "image": null
    },
    {
        "type": "outdoor",
        "name": "Lower Peirce Reservoir (Pulau Punggol Barat)",
        "latitude": 1.36906501231608,
        "longitude": 103.826296008364,
        "image": null
    },
    {
        "type": "outdoor",
        "name": "East Coast Park",
        "latitude": 1.30316900590952,
        "longitude": 103.920605001614,
        "image": null
    },
    {
        "type": "outdoor",
        "name": "Singapore Botanic Gardens",
        "latitude": 1.31104799117615,
        "longitude": 103.8162510018,
        "image": null
    },
    {
        "type": "outdoor",
        "name": "Henderson Waves Bridge @Telok Blangah Hill Park",
        "latitude": 1.27884500650228,
        "longitude": 103.810545004407,
        "image": null
    },
    {
        "type": "outdoor",
        "name": "Punggol Beach",
        "latitude": 1.420425,
        "longitude": 103.913108,
        "image": null
    },
    {
        "type": "outdoor",
        "name": "Punggol Waterway Park",
        "latitude": 1.4109970215842,
        "longitude": 103.904814998591,
        "image": null
    },
    {
        "type": "outdoor",
        "name": "Arab Street & Sultan Road",
        "latitude": 1.301989957970408,
        "longitude": 103.85854028003689,
        "image": null
    },
    {
        "type": "outdoor",
        "name": "Haji Lane",
        "latitude": 1.30085852191063,
        "longitude": 103.85903287664408,
        "image": null
    },
    {
        "type": "outdoor",
        "name": "Helix Bridge",
        "latitude": 1.2824608777101612,
        "longitude": 103.85908126831055,
        "image": null
    },
    {
        "type": "outdoor",
        "name": "Lorong Halus Bridge",
        "latitude": 1.3964004037229598,
        "longitude": 103.92206642034016,
        "image": null
    },
    {
        "type": "outdoor",
        "name": "Marina Barrage",
        "latitude": 1.2813131795563675,
        "longitude": 103.87246012687683,
        "image": null
    },
    {
        "type": "outdoor",
        "name": "Raffles Marina Lighthouse",
        "latitude": 1.3444250757766607,
        "longitude": 103.63396883010864,
        "image": null
    },
    {
        "type": "outdoor",
        "name": "Tanjong Rhu Bridge",
        "latitude": 1.2987944032897896,
        "longitude": 103.87742757797241,
        "image": null
    },
    {
        "type": "outdoor",
        "name": "Orchard Road",
        "latitude": 1.303618,
        "longitude": 103.835767,
        "image": null
    },
    {
        "type": "indoor",
        "name": "Gardens by the Bay",
        "latitude": 1.2839196334992269,
        "longitude": 103.86589944362639,
        "image": null
    }
]
